{
    "millonga": [
        {
            "thumb": "img/onada.jpg",
            "en":"tango o nada 1",
             "ko":"탱고 오나다 1",
            "address":"서울특별시 마포구 동교동 동교로 193",
             "address-en":"(193, Donggyo-ro, Mapo-gu,Seoul, Korea)",
            "lat":"37.557851",
            "lng":"126.922549",
            "url":"https://www.facebook.com/tangoonada/"

        },
       
        {
            "thumb": "img/eltango.png",
            "en":"el tango cafe",
            "ko":"엘 탱고 카페",
            "address":"서울특별시 서초구 강남대로95길 12",
             "address-en":"(12, Gangnam-daero 95-gil, Seocho-gu, Seoul, Korea)",
            "lat":"37.514078",
            "lng":"127.019163",
             "url":"https://www.facebook.com/eltangocafe/"

        }, {
            "thumb": "img/tango-young.png",
            "en":"tango young seoul",
            "ko":"서울 영 탱고",
            "address":"서울특별시 강남구 논현2동 선릉로 705 청운빌딩 B1",
             "address-en":"(705, Seolleung-ro, Gangnam-gu, Seoul, Korea)",
            "lat":"37.518006",
            "lng":"127.040777",
           "url":"https://www.facebook.com/TangoYoungSeoul/"

        }, {
            "thumb": "img/limetango.png",
            "en":"lime tango cafe",
            "ko":"라임 탱고 카페",
            "address":"서울특별시 강남구 역삼동 830-6",
             "address-en":"(Yeoksam-Dong 830-6, Gangnam-Gu, Seoul,Korea)",
            "lat":"37.495221",
            "lng":"127.031262",
            "url":"https://www.facebook.com/limetangocafe/"

        }, {
            "thumb": "img/elbulin.png",
            "en":"el bulin",
            "ko":"엘 블린",
            "address":"서울특별시 강남구 도산대로 155",
             "address-en":"(155, Dosan-daero, Gangnam-gu, Seoul,Korea)",
            "lat":"37.519097",
            "lng":"127.025353",
            "url":"https://www.facebook.com/elbulin/"
        }, 
       {
            "thumb": "img/royal-tango.jpg",
            "en":"royal tango",
            "ko":"로열 탱고",
            "address":"서울특별시 강남구 논현2동 선릉로 711",
             "address-en":"(711, Seolleung-ro, Gangnam-gu, Seoul,Korea)",
            "lat":"37.518231",
            "lng":"127.040649",
            "url":"https://www.facebook.com/ROYALTANGO/"

        }, {
            "thumb": "img/todo.jpg",
            "en":"todo tango",
            "ko":"토도 탱고",
            "address":"서울특별시 강남구 신사동 637-15 대명빌딩 B1",
             "address-en":"(7, Eonju-ro 172-gil, Gangnam-gu, Seoul, Korea)",
            "lat":"37.528093",
            "lng":"127.034507",
            "url":"https://www.facebook.com/TodoTangoStudio/"

        }, {
            "thumb": "img/tangocafe.jpg",
            "en":"tango cafe",
            "ko":"탱고 카페",
            "address":"서울특별시 중구 필동 퇴계로 202 풍산빌딩 B3F",
             "address-en":"(202, Toegye-ro, Jung-gu, Seoul, Korea)",
            "lat":"37.561123",
            "lng":"126.993960",
            "url":"https://www.facebook.com/tangocafein/"

        }, {
            "thumb": "img/tango-pan.jpg",
            "en":"gangnam tango pan",
            "ko":"강남 탱고 판",
            "address":"서울특별시 강남구 논현로67길 50",
             "address-en":"(50, Nonhyeon-ro 67-gil, Gangnam-gu, Seoul, Korea)",
            "lat":"37.493352",
            "lng":"127.035917",
            "url":"https://www.facebook.com/gangnamtango/"

        }
    ]
}